{
  "type": "FeatureCollection",
  "generator": "overpass-turbo",
  "copyright": "The data included in this document is from www.openstreetmap.org. The data is made available under ODbL.",
  "timestamp": "2025-11-11T07:52:57Z",
  "features": [
    {
      "type": "Feature",
      "properties": {
        "@id": "node/278360183",
        "bus": "yes",
        "highway": "bus_stop",
        "public_transport": "stop_position"
      },
      "geometry": {
        "type": "Point",
        "coordinates": [
          -82.3001745,
          23.0126744
        ]
      },
      "id": "node/278360183"
    },
    {
      "type": "Feature",
      "properties": {
        "@id": "node/282645903",
        "bench": "yes",
        "bus": "yes",
        "highway": "bus_stop",
        "name": "Diesel Motors",
        "public_transport": "platform",
        "shelter": "yes"
      },
      "geometry": {
        "type": "Point",
        "coordinates": [
          -86.2552642,
          12.1342427
        ]
      },
      "id": "node/282645903"
    },
    {
      "type": "Feature",
      "properties": {
        "@id": "node/286081188",
        "bus": "yes",
        "highway": "bus_stop",
        "name": "Bayer",
        "public_transport": "platform"
      },
      "geometry": {
        "type": "Point",
        "coordinates": [
          -86.1910982,
          12.1229974
        ]
      },
      "id": "node/286081188"
    },
    {
      "type": "Feature",
      "properties": {
        "@id": "node/286081191",
        "bus": "yes",
        "highway": "bus_stop",
        "name": "Comercial Fernández",
        "public_transport": "platform"
      },
      "geometry": {
        "type": "Point",
        "coordinates": [
          -86.1882109,
          12.1233674
        ]
      },
      "id": "node/286081191"
    },
    {
      "type": "Feature",
      "properties": {
        "@id": "node/286081194",
        "bus": "yes",
        "highway": "bus_stop",
        "name": "Bayer",
        "public_transport": "platform"
      },
      "geometry": {
        "type": "Point",
        "coordinates": [
          -86.1914328,
          12.1230999
        ]
      },
      "id": "node/286081194"
    },
    {
      "type": "Feature",
      "properties": {
        "@id": "node/314783932",
        "bus": "yes",
        "highway": "bus_stop",
        "name": "Quinta Santa Martha",
        "public_transport": "platform"
      },
      "geometry": {
        "type": "Point",
        "coordinates": [
          -86.2984904,
          12.0993026
        ]
      },
      "id": "node/314783932"
    },
    {
      "type": "Feature",
      "properties": {
        "@id": "node/314783935",
        "bus": "yes",
        "highway": "bus_stop",
        "name": "Sorbetería Haydee",
        "public_transport": "platform"
      },
      "geometry": {
        "type": "Point",
        "coordinates": [
          -86.2985803,
          12.1008024
        ]
      },
      "id": "node/314783935"
    },
    {
      "type": "Feature",
      "properties": {
        "@id": "node/314783939",
        "bus": "yes",
        "highway": "bus_stop",
        "name": "Pulpería La Esquinita",
        "public_transport": "platform",
        "shelter": "yes"
      },
      "geometry": {
        "type": "Point",
        "coordinates": [
          -86.2985862,
          12.1026677
        ]
      },
      "id": "node/314783939"
    },
    {
      "type": "Feature",
      "properties": {
        "@id": "node/459960714",
        "bus": "yes",
        "highway": "bus_stop",
        "name": "Carretera Guasimas y Matadero",
        "public_transport": "stop_position"
      },
      "geometry": {
        "type": "Point",
        "coordinates": [
          -82.3065022,
          23.0061767
        ]
      },
      "id": "node/459960714"
    },
    {
      "type": "Feature",
      "properties": {
        "@id": "node/463217648",
        "bus": "yes",
        "highway": "bus_stop",
        "name": "La Vuelta",
        "public_transport": "platform"
      },
      "geometry": {
        "type": "Point",
        "coordinates": [
          -86.306952,
          12.0909139
        ]
      },
      "id": "node/463217648"
    },
    {
      "type": "Feature",
      "properties": {
        "@id": "node/748049135",
        "bus": "yes",
        "highway": "bus_stop",
        "name": "Minisúper El Punto",
        "public_transport": "platform"
      },
      "geometry": {
        "type": "Point",
        "coordinates": [
          -86.2419456,
          12.1328202
        ]
      },
      "id": "node/748049135"
    },
    {
      "type": "Feature",
      "properties": {
        "@id": "node/1804387565",
        "bus": "yes",
        "highway": "bus_stop",
        "name": "Empresa Nicaragüense de Alimentos Básicos",
        "public_transport": "platform",
        "short_name": "ENABAS"
      },
      "geometry": {
        "type": "Point",
        "coordinates": [
          -86.2608678,
          12.1539546
        ]
      },
      "id": "node/1804387565"
    },
    {
      "type": "Feature",
      "properties": {
        "@id": "node/1933089347",
        "bus": "yes",
        "highway": "bus_stop",
        "name": "Terminal 165",
        "public_transport": "platform",
        "start": "yes"
      },
      "geometry": {
        "type": "Point",
        "coordinates": [
          -86.2271179,
          12.0989292
        ]
      },
      "id": "node/1933089347"
    },
    {
      "type": "Feature",
      "properties": {
        "@id": "node/1995472046",
        "highway": "bus_stop",
        "name": "La Gallera",
        "network": "NI",
        "public_transport": "platform"
      },
      "geometry": {
        "type": "Point",
        "coordinates": [
          -86.1030214,
          12.1990294
        ]
      },
      "id": "node/1995472046"
    },
    {
      "type": "Feature",
      "properties": {
        "@id": "node/2035779476",
        "bus": "yes",
        "highway": "bus_stop",
        "name": "Cerrajería Lico",
        "public_transport": "platform"
      },
      "geometry": {
        "type": "Point",
        "coordinates": [
          -86.2974503,
          12.146231
        ]
      },
      "id": "node/2035779476"
    },
    {
      "type": "Feature",
      "properties": {
        "@id": "node/2267767562",
        "bus": "yes",
        "highway": "bus_stop",
        "name": "Iglesia San José Obrero",
        "public_transport": "platform"
      },
      "geometry": {
        "type": "Point",
        "coordinates": [
          -86.2237018,
          12.1250024
        ]
      },
      "id": "node/2267767562"
    },
    {
      "type": "Feature",
      "properties": {
        "@id": "node/2267773838",
        "bench": "no",
        "bus": "yes",
        "highway": "bus_stop",
        "name": "UPOLI Sur",
        "public_transport": "platform",
        "shelter": "no"
      },
      "geometry": {
        "type": "Point",
        "coordinates": [
          -86.2198325,
          12.1364105
        ]
      },
      "id": "node/2267773838"
    },
    {
      "type": "Feature",
      "properties": {
        "@id": "node/2267780696",
        "bus": "yes",
        "highway": "bus_stop",
        "name": "Barrio Américas 1",
        "public_transport": "platform"
      },
      "geometry": {
        "type": "Point",
        "coordinates": [
          -86.2201517,
          12.1290578
        ]
      },
      "id": "node/2267780696"
    },
    {
      "type": "Feature",
      "properties": {
        "@id": "node/2267791147",
        "bench": "no",
        "bin": "no",
        "bus": "yes",
        "highway": "bus_stop",
        "name": "Rotonda El Periodista",
        "public_transport": "platform",
        "shelter": "no"
      },
      "geometry": {
        "type": "Point",
        "coordinates": [
          -86.2819994,
          12.1267721
        ]
      },
      "id": "node/2267791147"
    },
    {
      "type": "Feature",
      "properties": {
        "@id": "node/2311666892",
        "bus": "yes",
        "highway": "bus_stop",
        "name": "Terminal 105",
        "public_transport": "platform"
      },
      "geometry": {
        "type": "Point",
        "coordinates": [
          -86.1840753,
          12.1551957
        ]
      },
      "id": "node/2311666892"
    },
    {
      "type": "Feature",
      "properties": {
        "@id": "node/2311964348",
        "bus": "yes",
        "highway": "bus_stop",
        "name": "Ministerio de Defensa",
        "public_transport": "platform",
        "ref": "121"
      },
      "geometry": {
        "type": "Point",
        "coordinates": [
          -86.2648812,
          12.1436857
        ]
      },
      "id": "node/2311964348"
    },
    {
      "type": "Feature",
      "properties": {
        "@id": "node/2315491922",
        "bus": "yes",
        "highway": "bus_stop",
        "name": "Iglesia San Judas Tadeo",
        "public_transport": "platform"
      },
      "geometry": {
        "type": "Point",
        "coordinates": [
          -86.2975497,
          12.1167964
        ]
      },
      "id": "node/2315491922"
    },
    {
      "type": "Feature",
      "properties": {
        "@id": "node/2315491942",
        "bus": "yes",
        "highway": "bus_stop",
        "name": "Comercial Enmanuel",
        "public_transport": "platform"
      },
      "geometry": {
        "type": "Point",
        "coordinates": [
          -86.2977378,
          12.1152469
        ]
      },
      "id": "node/2315491942"
    },
    {
      "type": "Feature",
      "properties": {
        "@id": "node/2315493825",
        "bus": "yes",
        "highway": "bus_stop",
        "name": "El Nancite",
        "public_transport": "platform"
      },
      "geometry": {
        "type": "Point",
        "coordinates": [
          -86.2980059,
          12.1125085
        ]
      },
      "id": "node/2315493825"
    },
    {
      "type": "Feature",
      "properties": {
        "@id": "node/2315495181",
        "bus": "yes",
        "highway": "bus_stop",
        "name": "Cooperativa de Panificadores",
        "public_transport": "platform"
      },
      "geometry": {
        "type": "Point",
        "coordinates": [
          -86.2983854,
          12.1089776
        ]
      },
      "id": "node/2315495181"
    },
    {
      "type": "Feature",
      "properties": {
        "@id": "node/2315496198",
        "bus": "yes",
        "highway": "bus_stop",
        "name": "San Judas",
        "public_transport": "platform"
      },
      "geometry": {
        "type": "Point",
        "coordinates": [
          -86.2978446,
          12.1064261
        ]
      },
      "id": "node/2315496198"
    },
    {
      "type": "Feature",
      "properties": {
        "@id": "node/2315503165",
        "bus": "yes",
        "highway": "bus_stop",
        "name": "La Parrilla",
        "public_transport": "platform"
      },
      "geometry": {
        "type": "Point",
        "coordinates": [
          -86.3030544,
          12.0966371
        ]
      },
      "id": "node/2315503165"
    },
    {
      "type": "Feature",
      "properties": {
        "@id": "node/2316259694",
        "bus": "yes",
        "highway": "bus_stop",
        "name": "El Cristo Rey",
        "public_transport": "platform"
      },
      "geometry": {
        "type": "Point",
        "coordinates": [
          -86.2547274,
          12.1350681
        ]
      },
      "id": "node/2316259694"
    },
    {
      "type": "Feature",
      "properties": {
        "@id": "node/2316271724",
        "bus": "yes",
        "highway": "bus_stop",
        "name": "Iglesia de Dios",
        "public_transport": "platform"
      },
      "geometry": {
        "type": "Point",
        "coordinates": [
          -86.2455709,
          12.1395362
        ]
      },
      "id": "node/2316271724"
    },
    {
      "type": "Feature",
      "properties": {
        "@id": "node/2316279004",
        "bus": "yes",
        "highway": "bus_stop",
        "name": "Escuela de Comercio",
        "public_transport": "platform"
      },
      "geometry": {
        "type": "Point",
        "coordinates": [
          -86.239915,
          12.1408262
        ]
      },
      "id": "node/2316279004"
    },
    {
      "type": "Feature",
      "properties": {
        "@id": "node/2316287394",
        "bench": "yes",
        "bus": "yes",
        "highway": "bus_stop",
        "name": "Parque Maestro Gabriel",
        "public_transport": "platform",
        "shelter": "yes"
      },
      "geometry": {
        "type": "Point",
        "coordinates": [
          -86.237454,
          12.1456917
        ]
      },
      "id": "node/2316287394"
    },
    {
      "type": "Feature",
      "properties": {
        "@id": "node/2316371264",
        "bus": "yes",
        "highway": "bus_stop",
        "name": "Entrada Barrio Hugo Chávez",
        "public_transport": "platform"
      },
      "geometry": {
        "type": "Point",
        "coordinates": [
          -86.2025283,
          12.1487868
        ]
      },
      "id": "node/2316371264"
    },
    {
      "type": "Feature",
      "properties": {
        "@id": "node/2316379926",
        "bus": "yes",
        "highway": "bus_stop",
        "name": "La Rocargo",
        "public_transport": "platform"
      },
      "geometry": {
        "type": "Point",
        "coordinates": [
          -86.1987761,
          12.1481264
        ]
      },
      "id": "node/2316379926"
    },
    {
      "type": "Feature",
      "properties": {
        "@id": "node/2316382111",
        "bus": "yes",
        "highway": "bus_stop",
        "name": "La Rocargo",
        "public_transport": "platform"
      },
      "geometry": {
        "type": "Point",
        "coordinates": [
          -86.1999905,
          12.1485487
        ]
      },
      "id": "node/2316382111"
    },
    {
      "type": "Feature",
      "properties": {
        "@id": "node/2316388654",
        "bench": "yes",
        "bus": "yes",
        "highway": "bus_stop",
        "name": "Entrada a Las Mercedes / Subasta",
        "public_transport": "platform",
        "shelter": "yes"
      },
      "geometry": {
        "type": "Point",
        "coordinates": [
          -86.1901873,
          12.147631
        ]
      },
      "id": "node/2316388654"
    },
    {
      "type": "Feature",
      "properties": {
        "@id": "node/2316390563",
        "bus": "yes",
        "highway": "bus_stop",
        "name": "Abogacía Almendárez y Asociados",
        "public_transport": "platform"
      },
      "geometry": {
        "type": "Point",
        "coordinates": [
          -86.1870064,
          12.1498397
        ]
      },
      "id": "node/2316390563"
    },
    {
      "type": "Feature",
      "properties": {
        "@id": "node/2316394910",
        "bus": "yes",
        "highway": "bus_stop",
        "name": "Modesto Armijo",
        "public_transport": "platform"
      },
      "geometry": {
        "type": "Point",
        "coordinates": [
          -86.1854508,
          12.1531006
        ]
      },
      "id": "node/2316394910"
    },
    {
      "type": "Feature",
      "properties": {
        "@id": "node/2323340692",
        "bench": "no",
        "bus": "yes",
        "highway": "bus_stop",
        "name": "Empresa Nicaragüense de Acueductos y Alcantarillados Sanitarios",
        "public_transport": "platform",
        "shelter": "no",
        "short_name": "ENACAL"
      },
      "geometry": {
        "type": "Point",
        "coordinates": [
          -86.2206043,
          12.1500395
        ]
      },
      "id": "node/2323340692"
    },
    {
      "type": "Feature",
      "properties": {
        "@id": "node/2323501608",
        "bench": "no",
        "bin": "no",
        "bus": "yes",
        "highway": "bus_stop",
        "name": "Agri-Corp Norte",
        "public_transport": "platform",
        "shelter": "no"
      },
      "geometry": {
        "type": "Point",
        "coordinates": [
          -86.2174703,
          12.1497506
        ]
      },
      "id": "node/2323501608"
    },
    {
      "type": "Feature",
      "properties": {
        "@id": "node/2323511396",
        "bus": "yes",
        "highway": "bus_stop",
        "name": "AGCO",
        "public_transport": "platform"
      },
      "geometry": {
        "type": "Point",
        "coordinates": [
          -86.2130197,
          12.1493612
        ]
      },
      "id": "node/2323511396"
    },
    {
      "type": "Feature",
      "properties": {
        "@id": "node/2323512951",
        "bus": "yes",
        "highway": "bus_stop",
        "name": "Gasolinera Barrio Waspán",
        "public_transport": "platform"
      },
      "geometry": {
        "type": "Point",
        "coordinates": [
          -86.208537,
          12.1488312
        ]
      },
      "id": "node/2323512951"
    },
    {
      "type": "Feature",
      "properties": {
        "@id": "node/2386651216",
        "bus": "yes",
        "highway": "bus_stop",
        "name": "Llantera Vargas",
        "public_transport": "platform"
      },
      "geometry": {
        "type": "Point",
        "coordinates": [
          -86.2587627,
          12.1525425
        ]
      },
      "id": "node/2386651216"
    },
    {
      "type": "Feature",
      "properties": {
        "@id": "node/2399946195",
        "bench": "no",
        "bin": "yes",
        "bus": "yes",
        "highway": "bus_stop",
        "lit": "yes",
        "name": "Miguel Gutiérrez",
        "public_transport": "platform",
        "shelter": "no"
      },
      "geometry": {
        "type": "Point",
        "coordinates": [
          -86.2152028,
          12.1412343
        ]
      },
      "id": "node/2399946195"
    },
    {
      "type": "Feature",
      "properties": {
        "@id": "node/2399946199",
        "bench": "yes",
        "bus": "yes",
        "highway": "bus_stop",
        "name": "La Danto",
        "public_transport": "platform",
        "shelter": "yes",
        "tactile_paving": "no"
      },
      "geometry": {
        "type": "Point",
        "coordinates": [
          -86.2200954,
          12.1503676
        ]
      },
      "id": "node/2399946199"
    },
    {
      "type": "Feature",
      "properties": {
        "@id": "node/2399946203",
        "bench": "no",
        "bus": "yes",
        "highway": "bus_stop",
        "name": "Sucursal Norte - DISSUR",
        "operator": "TSK Melfosur",
        "public_transport": "platform",
        "shelter": "no"
      },
      "geometry": {
        "type": "Point",
        "coordinates": [
          -86.2232704,
          12.1506791
        ]
      },
      "id": "node/2399946203"
    },
    {
      "type": "Feature",
      "properties": {
        "@id": "node/2399946207",
        "bench": "yes",
        "bus": "yes",
        "highway": "bus_stop",
        "name": "Best Brand Pacas",
        "public_transport": "platform",
        "shelter": "yes"
      },
      "geometry": {
        "type": "Point",
        "coordinates": [
          -86.2362739,
          12.1519873
        ]
      },
      "id": "node/2399946207"
    },
    {
      "type": "Feature",
      "properties": {
        "@id": "node/2411647043",
        "bus": "yes",
        "highway": "bus_stop",
        "name": "Acuario",
        "public_transport": "stop_position"
      },
      "geometry": {
        "type": "Point",
        "coordinates": [
          -82.3492847,
          23.0163141
        ]
      },
      "id": "node/2411647043"
    },
    {
      "type": "Feature",
      "properties": {
        "@id": "node/2428724025",
        "bus": "yes",
        "highway": "bus_stop",
        "name": "Terminal Miguel Bonilla",
        "public_transport": "platform"
      },
      "geometry": {
        "type": "Point",
        "coordinates": [
          -86.2746992,
          12.1000334
        ]
      },
      "id": "node/2428724025"
    },
    {
      "type": "Feature",
      "properties": {
        "@id": "node/2430431081",
        "bench": "yes",
        "bus": "yes",
        "highway": "bus_stop",
        "name": "Serrano",
        "public_transport": "platform",
        "shelter": "yes"
      },
      "geometry": {
        "type": "Point",
        "coordinates": [
          -86.266001,
          12.1345203
        ]
      },
      "id": "node/2430431081"
    },
    {
      "type": "Feature",
      "properties": {
        "@id": "node/2430431082",
        "bus": "yes",
        "highway": "bus_stop",
        "name": "Radio Universidad",
        "public_transport": "platform"
      },
      "geometry": {
        "type": "Point",
        "coordinates": [
          -86.2729664,
          12.1162653
        ]
      },
      "id": "node/2430431082"
    },
    {
      "type": "Feature",
      "properties": {
        "@id": "node/2436184758",
        "bus": "yes",
        "highway": "bus_stop",
        "name": "Calbri Internacional",
        "public_transport": "platform"
      },
      "geometry": {
        "type": "Point",
        "coordinates": [
          -86.2427903,
          12.1520775
        ]
      },
      "id": "node/2436184758"
    },
    {
      "type": "Feature",
      "properties": {
        "@id": "node/2436184776",
        "bus": "yes",
        "highway": "bus_stop",
        "name": "Best Brand Pacas",
        "public_transport": "platform"
      },
      "geometry": {
        "type": "Point",
        "coordinates": [
          -86.2359807,
          12.1514674
        ]
      },
      "id": "node/2436184776"
    },
    {
      "type": "Feature",
      "properties": {
        "@id": "node/2436184780",
        "bus": "yes",
        "highway": "bus_stop",
        "name": "Ferretería El Serrucho",
        "public_transport": "platform"
      },
      "geometry": {
        "type": "Point",
        "coordinates": [
          -86.2839268,
          12.1572405
        ]
      },
      "id": "node/2436184780"
    },
    {
      "type": "Feature",
      "properties": {
        "@id": "node/2436184784",
        "bus": "yes",
        "highway": "bus_stop",
        "name": "Entrada Norte Iglesia Santa Ana",
        "public_transport": "platform"
      },
      "geometry": {
        "type": "Point",
        "coordinates": [
          -86.28956,
          12.1574845
        ]
      },
      "id": "node/2436184784"
    },
    {
      "type": "Feature",
      "properties": {
        "@id": "node/2436184789",
        "bus": "yes",
        "highway": "bus_stop",
        "name": "Taller Conrado",
        "public_transport": "platform"
      },
      "geometry": {
        "type": "Point",
        "coordinates": [
          -86.2136105,
          12.1466481
        ]
      },
      "id": "node/2436184789"
    },
    {
      "type": "Feature",
      "properties": {
        "@id": "node/2453670723",
        "bench": "yes",
        "bin": "yes",
        "bus": "yes",
        "highway": "bus_stop",
        "lit": "yes",
        "name": "Cancillería",
        "public_transport": "platform",
        "shelter": "yes"
      },
      "geometry": {
        "type": "Point",
        "coordinates": [
          -86.2729059,
          12.1539601
        ]
      },
      "id": "node/2453670723"
    },
    {
      "type": "Feature",
      "properties": {
        "@id": "node/2462431778",
        "bus": "yes",
        "highway": "bus_stop",
        "name": "Hospital Dermatológico",
        "public_transport": "platform"
      },
      "geometry": {
        "type": "Point",
        "coordinates": [
          -86.2975077,
          12.1475424
        ]
      },
      "id": "node/2462431778"
    },
    {
      "type": "Feature",
      "properties": {
        "@id": "node/2462431794",
        "bus": "yes",
        "highway": "bus_stop",
        "name": "Colegio Primero de Mayo",
        "public_transport": "platform"
      },
      "geometry": {
        "type": "Point",
        "coordinates": [
          -86.2240269,
          12.1235681
        ]
      },
      "id": "node/2462431794"
    },
    {
      "type": "Feature",
      "properties": {
        "@id": "node/2462431802",
        "bench": "no",
        "bin": "no",
        "bus": "yes",
        "highway": "bus_stop",
        "lit": "no",
        "name": "El Quetzal",
        "public_transport": "platform",
        "shelter": "no"
      },
      "geometry": {
        "type": "Point",
        "coordinates": [
          -86.2537564,
          12.1150773
        ]
      },
      "id": "node/2462431802"
    },
    {
      "type": "Feature",
      "properties": {
        "@id": "node/2462431872",
        "bench": "no",
        "bin": "no",
        "bus": "yes",
        "highway": "bus_stop",
        "lit": "no",
        "name": "Ultranic",
        "public_transport": "platform",
        "shelter": "no"
      },
      "geometry": {
        "type": "Point",
        "coordinates": [
          -86.2621387,
          12.1206564
        ]
      },
      "id": "node/2462431872"
    },
    {
      "type": "Feature",
      "properties": {
        "@id": "node/2462431876",
        "bus": "yes",
        "highway": "bus_stop",
        "name": "Ferretería Jenny",
        "public_transport": "platform"
      },
      "geometry": {
        "type": "Point",
        "coordinates": [
          -86.2391134,
          12.1263891
        ]
      },
      "id": "node/2462431876"
    },
    {
      "type": "Feature",
      "properties": {
        "@id": "node/2462431884",
        "bench": "yes",
        "bus": "yes",
        "highway": "bus_stop",
        "mapillary": "168690175142974",
        "name": "Edificios El Centro",
        "public_transport": "platform",
        "shelter": "yes"
      },
      "geometry": {
        "type": "Point",
        "coordinates": [
          -86.281191,
          12.1288195
        ]
      },
      "id": "node/2462431884"
    },
    {
      "type": "Feature",
      "properties": {
        "@id": "node/2462431914",
        "bus": "yes",
        "highway": "bus_stop",
        "name": "Iglesia Inmaculada Concepción",
        "public_transport": "platform"
      },
      "geometry": {
        "type": "Point",
        "coordinates": [
          -86.2312724,
          12.1210556
        ]
      },
      "id": "node/2462431914"
    },
    {
      "type": "Feature",
      "properties": {
        "@id": "node/2462431929",
        "bench": "yes",
        "bus": "yes",
        "highway": "bus_stop",
        "name": "Plaza España Norte",
        "public_transport": "platform",
        "shelter": "yes"
      },
      "geometry": {
        "type": "Point",
        "coordinates": [
          -86.2825491,
          12.1350594
        ]
      },
      "id": "node/2462431929"
    },
    {
      "type": "Feature",
      "properties": {
        "@id": "node/2462431969",
        "bench": "no",
        "bin": "no",
        "bus": "yes",
        "highway": "bus_stop",
        "name": "Colegio Teresiano",
        "public_transport": "platform",
        "shelter": "no"
      },
      "geometry": {
        "type": "Point",
        "coordinates": [
          -86.2585876,
          12.1167641
        ]
      },
      "id": "node/2462431969"
    },
    {
      "type": "Feature",
      "properties": {
        "@id": "node/2463262400",
        "bench": "yes",
        "bus": "yes",
        "covered": "yes",
        "highway": "bus_stop",
        "name": "KM 8 Carretera Masaya / Primera entrada a Las Colinas",
        "network": "NI",
        "public_transport": "platform",
        "shelter": "yes"
      },
      "geometry": {
        "type": "Point",
        "coordinates": [
          -86.2415224,
          12.0984648
        ]
      },
      "id": "node/2463262400"
    },
    {
      "type": "Feature",
      "properties": {
        "@id": "node/2463262630",
        "bench": "no",
        "bin": "no",
        "bus": "yes",
        "highway": "bus_stop",
        "name": "Galerías Santo Domingo Este",
        "network": "NI",
        "public_transport": "platform",
        "shelter": "no"
      },
      "geometry": {
        "type": "Point",
        "coordinates": [
          -86.2476662,
          12.1046022
        ]
      },
      "id": "node/2463262630"
    },
    {
      "type": "Feature",
      "properties": {
        "@id": "node/2463308684",
        "bus": "yes",
        "highway": "bus_stop",
        "name": "Hotel Las Mercedes",
        "public_transport": "platform",
        "shelter": "yes"
      },
      "geometry": {
        "type": "Point",
        "coordinates": [
          -86.1726379,
          12.1457074
        ]
      },
      "id": "node/2463308684"
    },
    {
      "type": "Feature",
      "properties": {
        "@id": "node/2466764543",
        "bus": "yes",
        "covered": "yes",
        "highway": "bus_stop",
        "name": "Hospital Militar",
        "public_transport": "platform"
      },
      "geometry": {
        "type": "Point",
        "coordinates": [
          -86.276865,
          12.1359262
        ]
      },
      "id": "node/2466764543"
    },
    {
      "type": "Feature",
      "properties": {
        "@id": "node/2466764545",
        "bench": "yes",
        "bus": "yes",
        "highway": "bus_stop",
        "name": "Mabale",
        "public_transport": "platform",
        "shelter": "yes"
      },
      "geometry": {
        "type": "Point",
        "coordinates": [
          -86.2769441,
          12.1360957
        ]
      },
      "id": "node/2466764545"
    },
    {
      "type": "Feature",
      "properties": {
        "@id": "node/2468437824",
        "bus": "yes",
        "highway": "bus_stop",
        "name": "Semáforos La Ceibita",
        "public_transport": "platform"
      },
      "geometry": {
        "type": "Point",
        "coordinates": [
          -86.2984103,
          12.1541202
        ]
      },
      "id": "node/2468437824"
    },
    {
      "type": "Feature",
      "properties": {
        "@id": "node/2468437832",
        "bench": "yes",
        "bus": "yes",
        "highway": "bus_stop",
        "name": "Cuesta El Plomo Sur",
        "public_transport": "platform",
        "shelter": "yes"
      },
      "geometry": {
        "type": "Point",
        "coordinates": [
          -86.3161645,
          12.14982
        ]
      },
      "id": "node/2468437832"
    },
    {
      "type": "Feature",
      "properties": {
        "@id": "node/2469441740",
        "bench": "no",
        "bus": "yes",
        "highway": "bus_stop",
        "name": "Cuesta El Plomo Norte",
        "public_transport": "platform",
        "shelter": "yes",
        "source": "Bing"
      },
      "geometry": {
        "type": "Point",
        "coordinates": [
          -86.3382434,
          12.1561076
        ]
      },
      "id": "node/2469441740"
    },
    {
      "type": "Feature",
      "properties": {
        "@id": "node/2469441748",
        "bench": "no",
        "bus": "yes",
        "highway": "bus_stop",
        "name": "Cuesta El Plomo Norte",
        "public_transport": "platform",
        "shelter": "yes"
      },
      "geometry": {
        "type": "Point",
        "coordinates": [
          -86.3380154,
          12.1565408
        ]
      },
      "id": "node/2469441748"
    },
    {
      "type": "Feature",
      "properties": {
        "@id": "node/2472888535",
        "bench": "no",
        "bin": "no",
        "bus": "yes",
        "highway": "bus_stop",
        "lit": "yes",
        "name": "El Ministerio",
        "public_transport": "platform",
        "shelter": "no",
        "source": "survey"
      },
      "geometry": {
        "type": "Point",
        "coordinates": [
          -86.2545341,
          12.1127619
        ]
      },
      "id": "node/2472888535"
    },
    {
      "type": "Feature",
      "properties": {
        "@id": "node/2473714492",
        "highway": "bus_stop",
        "official_status": "yes",
        "shelter": "yes",
        "source": "survey"
      },
      "geometry": {
        "type": "Point",
        "coordinates": [
          -86.5055547,
          11.9271274
        ]
      },
      "id": "node/2473714492"
    },
    {
      "type": "Feature",
      "properties": {
        "@id": "node/2474535198",
        "highway": "bus_stop",
        "name": "Maderas Negras",
        "official_status": "yes",
        "shelter": "yes",
        "source": "survey"
      },
      "geometry": {
        "type": "Point",
        "coordinates": [
          -86.5076643,
          11.9380797
        ]
      },
      "id": "node/2474535198"
    },
    {
      "type": "Feature",
      "properties": {
        "@id": "node/2474535216",
        "highway": "bus_stop",
        "name": "La Ceiba",
        "official_status": "yes",
        "shelter": "yes",
        "source": "survey"
      },
      "geometry": {
        "type": "Point",
        "coordinates": [
          -86.5086118,
          11.9431399
        ]
      },
      "id": "node/2474535216"
    },
    {
      "type": "Feature",
      "properties": {
        "@id": "node/2474745795",
        "highway": "bus_stop",
        "name": "Waterloo",
        "official_status": "yes",
        "shelter": "yes",
        "source": "survey"
      },
      "geometry": {
        "type": "Point",
        "coordinates": [
          -86.5159802,
          11.995813
        ]
      },
      "id": "node/2474745795"
    },
    {
      "type": "Feature",
      "properties": {
        "@id": "node/2474745842",
        "highway": "bus_stop",
        "official_status": "yes",
        "shelter": "yes",
        "source": "survey"
      },
      "geometry": {
        "type": "Point",
        "coordinates": [
          -86.5121809,
          12.037402
        ]
      },
      "id": "node/2474745842"
    },
    {
      "type": "Feature",
      "properties": {
        "@id": "node/2474745942",
        "highway": "bus_stop",
        "official_status": "yes",
        "shelter": "yes",
        "source": "survey"
      },
      "geometry": {
        "type": "Point",
        "coordinates": [
          -86.4750124,
          12.0658735
        ]
      },
      "id": "node/2474745942"
    },
    {
      "type": "Feature",
      "properties": {
        "@id": "node/2474745943",
        "highway": "bus_stop",
        "official_status": "yes",
        "shelter": "yes",
        "source": "survey"
      },
      "geometry": {
        "type": "Point",
        "coordinates": [
          -86.4817665,
          12.0681155
        ]
      },
      "id": "node/2474745943"
    },
    {
      "type": "Feature",
      "properties": {
        "@id": "node/2474745948",
        "highway": "bus_stop",
        "official_status": "yes",
        "shelter": "yes",
        "source": "survey"
      },
      "geometry": {
        "type": "Point",
        "coordinates": [
          -86.4946723,
          12.0727954
        ]
      },
      "id": "node/2474745948"
    },
    {
      "type": "Feature",
      "properties": {
        "@id": "node/2474745949",
        "highway": "bus_stop",
        "official_status": "yes",
        "shelter": "yes",
        "source": "survey"
      },
      "geometry": {
        "type": "Point",
        "coordinates": [
          -86.4945011,
          12.0729337
        ]
      },
      "id": "node/2474745949"
    },
    {
      "type": "Feature",
      "properties": {
        "@id": "node/2474745960",
        "highway": "bus_stop",
        "official_status": "yes",
        "public_transport": "stop_position",
        "shelter": "yes",
        "source": "survey"
      },
      "geometry": {
        "type": "Point",
        "coordinates": [
          -86.385192,
          12.0826283
        ]
      },
      "id": "node/2474745960"
    },
    {
      "type": "Feature",
      "properties": {
        "@id": "node/2474745961",
        "highway": "bus_stop",
        "official_status": "yes",
        "public_transport": "stop_position",
        "shelter": "yes",
        "source": "survey"
      },
      "geometry": {
        "type": "Point",
        "coordinates": [
          -86.3811706,
          12.0832628
        ]
      },
      "id": "node/2474745961"
    },
    {
      "type": "Feature",
      "properties": {
        "@id": "node/2475711912",
        "bus": "yes",
        "highway": "bus_stop",
        "name": "Villa Libertad Interior",
        "public_transport": "platform"
      },
      "geometry": {
        "type": "Point",
        "coordinates": [
          -86.2011451,
          12.1132353
        ]
      },
      "id": "node/2475711912"
    },
    {
      "type": "Feature",
      "properties": {
        "@id": "node/2475711913",
        "bus": "yes",
        "highway": "bus_stop",
        "name": "Escuela la Libertad",
        "public_transport": "platform"
      },
      "geometry": {
        "type": "Point",
        "coordinates": [
          -86.1970362,
          12.1102962
        ]
      },
      "id": "node/2475711913"
    },
    {
      "type": "Feature",
      "properties": {
        "@id": "node/2475711915",
        "bus": "yes",
        "highway": "bus_stop",
        "name": "Escuela la Libertad",
        "public_transport": "platform"
      },
      "geometry": {
        "type": "Point",
        "coordinates": [
          -86.1970571,
          12.1103057
        ]
      },
      "id": "node/2475711915"
    },
    {
      "type": "Feature",
      "properties": {
        "@id": "node/2475711916",
        "bus": "yes",
        "highway": "bus_stop",
        "name": "La Sabana",
        "public_transport": "platform"
      },
      "geometry": {
        "type": "Point",
        "coordinates": [
          -86.2057913,
          12.1190982
        ]
      },
      "id": "node/2475711916"
    },
    {
      "type": "Feature",
      "properties": {
        "@id": "node/2475711918",
        "bus": "yes",
        "highway": "bus_stop",
        "name": "La Sabana",
        "public_transport": "platform"
      },
      "geometry": {
        "type": "Point",
        "coordinates": [
          -86.2057731,
          12.1192067
        ]
      },
      "id": "node/2475711918"
    },
    {
      "type": "Feature",
      "properties": {
        "@id": "node/2475711921",
        "bus": "yes",
        "highway": "bus_stop",
        "name": "Ixchen",
        "public_transport": "platform"
      },
      "geometry": {
        "type": "Point",
        "coordinates": [
          -86.2027567,
          12.1180081
        ]
      },
      "id": "node/2475711921"
    },
    {
      "type": "Feature",
      "properties": {
        "@id": "node/2475711923",
        "bus": "yes",
        "highway": "bus_stop",
        "name": "Villa Libertad",
        "public_transport": "platform"
      },
      "geometry": {
        "type": "Point",
        "coordinates": [
          -86.2006755,
          12.1170332
        ]
      },
      "id": "node/2475711923"
    },
    {
      "type": "Feature",
      "properties": {
        "@id": "node/2475711925",
        "bus": "yes",
        "highway": "bus_stop",
        "name": "Comandante Aureleano",
        "public_transport": "platform"
      },
      "geometry": {
        "type": "Point",
        "coordinates": [
          -86.1931793,
          12.1091942
        ]
      },
      "id": "node/2475711925"
    },
    {
      "type": "Feature",
      "properties": {
        "@id": "node/2475711926",
        "bus": "yes",
        "highway": "bus_stop",
        "name": "Terminal 116",
        "public_transport": "platform"
      },
      "geometry": {
        "type": "Point",
        "coordinates": [
          -86.2034764,
          12.1130388
        ]
      },
      "id": "node/2475711926"
    },
    {
      "type": "Feature",
      "properties": {
        "@id": "node/2475711928",
        "bus": "yes",
        "highway": "bus_stop",
        "name": "Ixchen",
        "public_transport": "platform"
      },
      "geometry": {
        "type": "Point",
        "coordinates": [
          -86.2027064,
          12.1180747
        ]
      },
      "id": "node/2475711928"
    },
    {
      "type": "Feature",
      "properties": {
        "@id": "node/2475711929",
        "bus": "yes",
        "highway": "bus_stop",
        "name": "Comandante Aureleano",
        "public_transport": "platform"
      },
      "geometry": {
        "type": "Point",
        "coordinates": [
          -86.1931446,
          12.1092762
        ]
      },
      "id": "node/2475711929"
    },
    {
      "type": "Feature",
      "properties": {
        "@id": "node/2475711931",
        "bus": "yes",
        "highway": "bus_stop",
        "name": "Pulpería Karolina",
        "public_transport": "platform"
      },
      "geometry": {
        "type": "Point",
        "coordinates": [
          -86.2005473,
          12.1123964
        ]
      },
      "id": "node/2475711931"
    },
    {
      "type": "Feature",
      "properties": {
        "@id": "node/2475711932",
        "bus": "yes",
        "highway": "bus_stop",
        "name": "Pulpería Karolina",
        "public_transport": "platform"
      },
      "geometry": {
        "type": "Point",
        "coordinates": [
          -86.2005343,
          12.1124983
        ]
      },
      "id": "node/2475711932"
    },
    {
      "type": "Feature",
      "properties": {
        "@id": "node/2475711937",
        "bus": "yes",
        "highway": "bus_stop",
        "name": "Terminal 116",
        "public_transport": "platform"
      },
      "geometry": {
        "type": "Point",
        "coordinates": [
          -86.2035829,
          12.1130803
        ]
      },
      "id": "node/2475711937"
    },
    {
      "type": "Feature",
      "properties": {
        "@id": "node/2475807984",
        "bus": "yes",
        "highway": "bus_stop",
        "name": "Madre de Dios Este",
        "public_transport": "platform"
      },
      "geometry": {
        "type": "Point",
        "coordinates": [
          -86.2092457,
          12.123483
        ]
      },
      "id": "node/2475807984"
    },
    {
      "type": "Feature",
      "properties": {
        "@id": "node/2475807992",
        "bus": "yes",
        "highway": "bus_stop",
        "name": "Madre de Dios Este",
        "public_transport": "platform"
      },
      "geometry": {
        "type": "Point",
        "coordinates": [
          -86.2092621,
          12.1231988
        ]
      },
      "id": "node/2475807992"
    },
    {
      "type": "Feature",
      "properties": {
        "@id": "node/2475807999",
        "bus": "yes",
        "highway": "bus_stop",
        "name": "La Chelita",
        "public_transport": "platform"
      },
      "geometry": {
        "type": "Point",
        "coordinates": [
          -86.2090664,
          12.1205116
        ]
      },
      "id": "node/2475807999"
    },
    {
      "type": "Feature",
      "properties": {
        "@id": "node/2475808006",
        "bus": "yes",
        "highway": "bus_stop",
        "name": "La Chelita",
        "public_transport": "platform"
      },
      "geometry": {
        "type": "Point",
        "coordinates": [
          -86.2092061,
          12.1205556
        ]
      },
      "id": "node/2475808006"
    },
    {
      "type": "Feature",
      "properties": {
        "@id": "node/2476043393",
        "bus": "yes",
        "highway": "bus_stop",
        "name": "Indenicsa",
        "public_transport": "platform",
        "shelter": "no"
      },
      "geometry": {
        "type": "Point",
        "coordinates": [
          -86.24199,
          12.1422333
        ]
      },
      "id": "node/2476043393"
    },
    {
      "type": "Feature",
      "properties": {
        "@id": "node/2482595272",
        "highway": "bus_stop",
        "name": "Las Calderas",
        "public_transport": "platform",
        "source": "survey"
      },
      "geometry": {
        "type": "Point",
        "coordinates": [
          -86.2450066,
          12.0903421
        ]
      },
      "id": "node/2482595272"
    },
    {
      "type": "Feature",
      "properties": {
        "@id": "node/2487035819",
        "bench": "no",
        "bin": "no",
        "bus": "yes",
        "highway": "bus_stop",
        "name": "Semáforos Villa Progreso",
        "public_transport": "platform",
        "shelter": "no"
      },
      "geometry": {
        "type": "Point",
        "coordinates": [
          -86.227082,
          12.1382632
        ]
      },
      "id": "node/2487035819"
    },
    {
      "type": "Feature",
      "properties": {
        "@id": "node/2487035823",
        "bench": "no",
        "bin": "no",
        "bus": "yes",
        "covered": "yes",
        "highway": "bus_stop",
        "name": "Semáforos Villa Progreso",
        "public_transport": "platform"
      },
      "geometry": {
        "type": "Point",
        "coordinates": [
          -86.2270693,
          12.1383588
        ]
      },
      "id": "node/2487035823"
    },
    {
      "type": "Feature",
      "properties": {
        "@id": "node/2489005384",
        "bus": "yes",
        "highway": "bus_stop",
        "name": "Campo de béisbol Las Jagüitas",
        "public_transport": "platform"
      },
      "geometry": {
        "type": "Point",
        "coordinates": [
          -86.2074966,
          12.0968156
        ]
      },
      "id": "node/2489005384"
    },
    {
      "type": "Feature",
      "properties": {
        "@id": "node/2489005412",
        "bus": "yes",
        "highway": "bus_stop",
        "name": "Pulpería Mery",
        "public_transport": "platform"
      },
      "geometry": {
        "type": "Point",
        "coordinates": [
          -86.2023934,
          12.0934469
        ]
      },
      "id": "node/2489005412"
    },
    {
      "type": "Feature",
      "properties": {
        "@id": "node/2489005415",
        "bus": "yes",
        "highway": "bus_stop",
        "name": "Iglesia Católica",
        "public_transport": "platform"
      },
      "geometry": {
        "type": "Point",
        "coordinates": [
          -86.1954464,
          12.0892774
        ]
      },
      "id": "node/2489005415"
    },
    {
      "type": "Feature",
      "properties": {
        "@id": "node/2490205723",
        "bus": "yes",
        "highway": "bus_stop",
        "name": "Semáforo Rigoberto López Pérez",
        "public_transport": "platform"
      },
      "geometry": {
        "type": "Point",
        "coordinates": [
          -86.2734216,
          12.1196124
        ]
      },
      "id": "node/2490205723"
    },
    {
      "type": "Feature",
      "properties": {
        "@id": "node/2490205782",
        "bench": "no",
        "bin": "no",
        "bus": "yes",
        "highway": "bus_stop",
        "name": "Edificio de las Naciones Unidas",
        "public_transport": "platform",
        "shelter": "no"
      },
      "geometry": {
        "type": "Point",
        "coordinates": [
          -86.2804569,
          12.1305982
        ]
      },
      "id": "node/2490205782"
    },
    {
      "type": "Feature",
      "properties": {
        "@id": "node/2490583555",
        "bus": "yes",
        "highway": "bus_stop",
        "name": "Templo Mormón Altagracia",
        "public_transport": "platform"
      },
      "geometry": {
        "type": "Point",
        "coordinates": [
          -86.2895561,
          12.1360165
        ]
      },
      "id": "node/2490583555"
    },
    {
      "type": "Feature",
      "properties": {
        "@id": "node/2490583559",
        "bus": "yes",
        "highway": "bus_stop",
        "name": "Avenida Pochote",
        "public_transport": "platform"
      },
      "geometry": {
        "type": "Point",
        "coordinates": [
          -86.2358434,
          12.1166175
        ]
      },
      "id": "node/2490583559"
    },
    {
      "type": "Feature",
      "properties": {
        "@id": "node/2490583571",
        "bench": "yes",
        "bus": "yes",
        "highway": "bus_stop",
        "name": "El Edén",
        "public_transport": "platform",
        "shelter": "yes"
      },
      "geometry": {
        "type": "Point",
        "coordinates": [
          -86.2418829,
          12.1410726
        ]
      },
      "id": "node/2490583571"
    },
    {
      "type": "Feature",
      "properties": {
        "@id": "node/2490583574",
        "bus": "yes",
        "highway": "bus_stop",
        "name": "Farmacia Vicky",
        "public_transport": "platform"
      },
      "geometry": {
        "type": "Point",
        "coordinates": [
          -86.23534,
          12.1324436
        ]
      },
      "id": "node/2490583574"
    },
    {
      "type": "Feature",
      "properties": {
        "@id": "node/2490583590",
        "bus": "yes",
        "highway": "bus_stop",
        "name": "Farmacia Buendía",
        "public_transport": "platform"
      },
      "geometry": {
        "type": "Point",
        "coordinates": [
          -86.2939441,
          12.1309759
        ]
      },
      "id": "node/2490583590"
    },
    {
      "type": "Feature",
      "properties": {
        "@id": "node/2490583593",
        "bus": "yes",
        "highway": "bus_stop",
        "name": "Farmacia Buendía",
        "public_transport": "platform"
      },
      "geometry": {
        "type": "Point",
        "coordinates": [
          -86.2937445,
          12.1310482
        ]
      },
      "id": "node/2490583593"
    },
    {
      "type": "Feature",
      "properties": {
        "@id": "node/2490583597",
        "bus": "yes",
        "highway": "bus_stop",
        "name": "Ferretería El Progreso",
        "public_transport": "platform"
      },
      "geometry": {
        "type": "Point",
        "coordinates": [
          -86.2973211,
          12.1268966
        ]
      },
      "id": "node/2490583597"
    },
    {
      "type": "Feature",
      "properties": {
        "@id": "node/2490583600",
        "bus": "yes",
        "highway": "bus_stop",
        "name": "Colegio Madre del Divino Pastor",
        "public_transport": "platform"
      },
      "geometry": {
        "type": "Point",
        "coordinates": [
          -86.2954226,
          12.1296126
        ]
      },
      "id": "node/2490583600"
    },
    {
      "type": "Feature",
      "properties": {
        "@id": "node/2490583603",
        "bus": "yes",
        "highway": "bus_stop",
        "name": "INSS",
        "public_transport": "platform"
      },
      "geometry": {
        "type": "Point",
        "coordinates": [
          -86.275981,
          12.1485619
        ]
      },
      "id": "node/2490583603"
    },
    {
      "type": "Feature",
      "properties": {
        "@id": "node/2490583611",
        "bus": "yes",
        "highway": "bus_stop",
        "name": "Parque Luis Alfonso Velásquez",
        "public_transport": "platform"
      },
      "geometry": {
        "type": "Point",
        "coordinates": [
          -86.2724192,
          12.1509412
        ]
      },
      "id": "node/2490583611"
    },
    {
      "type": "Feature",
      "properties": {
        "@id": "node/2490583614",
        "bus": "yes",
        "highway": "bus_stop",
        "name": "DNP Petrolub",
        "public_transport": "platform"
      },
      "geometry": {
        "type": "Point",
        "coordinates": [
          -86.26785,
          12.1504987
        ]
      },
      "id": "node/2490583614"
    },
    {
      "type": "Feature",
      "properties": {
        "@id": "node/2490583627",
        "bus": "yes",
        "highway": "bus_stop",
        "name": "Variedades Joshep",
        "public_transport": "platform"
      },
      "geometry": {
        "type": "Point",
        "coordinates": [
          -86.2893238,
          12.1398011
        ]
      },
      "id": "node/2490583627"
    },
    {
      "type": "Feature",
      "properties": {
        "@id": "node/2490583637",
        "bus": "yes",
        "highway": "bus_stop",
        "name": "Boutique Inter Fashion",
        "public_transport": "platform"
      },
      "geometry": {
        "type": "Point",
        "coordinates": [
          -86.2561512,
          12.1444155
        ]
      },
      "id": "node/2490583637"
    },
    {
      "type": "Feature",
      "properties": {
        "@id": "node/2490583640",
        "bus": "yes",
        "highway": "bus_stop",
        "name": "Profamilia",
        "public_transport": "platform"
      },
      "geometry": {
        "type": "Point",
        "coordinates": [
          -86.2515321,
          12.145137
        ]
      },
      "id": "node/2490583640"
    },
    {
      "type": "Feature",
      "properties": {
        "@id": "node/2490583643",
        "amenity": "drinking_water",
        "bus": "yes",
        "highway": "bus_stop",
        "name": "Salomón Moreno",
        "public_transport": "platform"
      },
      "geometry": {
        "type": "Point",
        "coordinates": [
          -86.2233822,
          12.1052598
        ]
      },
      "id": "node/2490583643"
    },
    {
      "type": "Feature",
      "properties": {
        "@id": "node/2490583652",
        "bus": "yes",
        "highway": "bus_stop",
        "name": "Cementerio Las Jagüitas",
        "public_transport": "platform"
      },
      "geometry": {
        "type": "Point",
        "coordinates": [
          -86.2133405,
          12.0988613
        ]
      },
      "id": "node/2490583652"
    },
    {
      "type": "Feature",
      "properties": {
        "@id": "node/2490583656",
        "bus": "yes",
        "highway": "bus_stop",
        "name": "Alcaldía de Managua",
        "public_transport": "platform"
      },
      "geometry": {
        "type": "Point",
        "coordinates": [
          -86.2953277,
          12.1278491
        ]
      },
      "id": "node/2490583656"
    },
    {
      "type": "Feature",
      "properties": {
        "@id": "node/2490583671",
        "bus": "yes",
        "highway": "bus_stop",
        "name": "René Polanco",
        "public_transport": "platform"
      },
      "geometry": {
        "type": "Point",
        "coordinates": [
          -86.2247947,
          12.1123203
        ]
      },
      "id": "node/2490583671"
    },
    {
      "type": "Feature",
      "properties": {
        "@id": "node/2490583675",
        "bus": "yes",
        "highway": "bus_stop",
        "name": "Farmacia David",
        "public_transport": "platform"
      },
      "geometry": {
        "type": "Point",
        "coordinates": [
          -86.2908111,
          12.1337206
        ]
      },
      "id": "node/2490583675"
    },
    {
      "type": "Feature",
      "properties": {
        "@id": "node/2490583678",
        "bus": "yes",
        "highway": "bus_stop",
        "name": "El Gallopinto",
        "public_transport": "platform"
      },
      "geometry": {
        "type": "Point",
        "coordinates": [
          -86.2824895,
          12.1453601
        ]
      },
      "id": "node/2490583678"
    },
    {
      "type": "Feature",
      "properties": {
        "@id": "node/2490583692",
        "bus": "yes",
        "highway": "bus_stop",
        "name": "Tanque Rojo",
        "public_transport": "platform"
      },
      "geometry": {
        "type": "Point",
        "coordinates": [
          -86.22356,
          12.1092094
        ]
      },
      "id": "node/2490583692"
    },
    {
      "type": "Feature",
      "properties": {
        "@id": "node/2490583709",
        "bus": "yes",
        "highway": "bus_stop",
        "name": "Palí La Fuente",
        "public_transport": "platform"
      },
      "geometry": {
        "type": "Point",
        "coordinates": [
          -86.2383558,
          12.1178865
        ]
      },
      "id": "node/2490583709"
    },
    {
      "type": "Feature",
      "properties": {
        "@id": "node/2490583725",
        "bus": "yes",
        "highway": "bus_stop",
        "name": "Pulpería Gema",
        "public_transport": "platform"
      },
      "geometry": {
        "type": "Point",
        "coordinates": [
          -86.291665,
          12.131794
        ]
      },
      "id": "node/2490583725"
    },
    {
      "type": "Feature",
      "properties": {
        "@id": "node/2490583728",
        "bus": "yes",
        "highway": "bus_stop",
        "name": "Pulpería Gema",
        "public_transport": "platform"
      },
      "geometry": {
        "type": "Point",
        "coordinates": [
          -86.2916659,
          12.1311815
        ]
      },
      "id": "node/2490583728"
    },
    {
      "type": "Feature",
      "properties": {
        "@id": "node/2490583739",
        "bus": "yes",
        "highway": "bus_stop",
        "name": "Farmacia David",
        "public_transport": "platform"
      },
      "geometry": {
        "type": "Point",
        "coordinates": [
          -86.290305,
          12.1342363
        ]
      },
      "id": "node/2490583739"
    },
    {
      "type": "Feature",
      "properties": {
        "@id": "node/2490583742",
        "bus": "yes",
        "highway": "bus_stop",
        "name": "Barrio 19 de Julio",
        "public_transport": "platform"
      },
      "geometry": {
        "type": "Point",
        "coordinates": [
          -86.2654593,
          12.1481812
        ]
      },
      "id": "node/2490583742"
    },
    {
      "type": "Feature",
      "properties": {
        "@id": "node/2490583745",
        "bus": "yes",
        "highway": "bus_stop",
        "name": "Bar Neptuno",
        "public_transport": "platform",
        "shelter": "yes"
      },
      "geometry": {
        "type": "Point",
        "coordinates": [
          -86.2456354,
          12.1418043
        ]
      },
      "id": "node/2490583745"
    },
    {
      "type": "Feature",
      "properties": {
        "@id": "node/2490583752",
        "bus": "yes",
        "highway": "bus_stop",
        "name": "Semáforos de Ciudad Jardín",
        "public_transport": "platform"
      },
      "geometry": {
        "type": "Point",
        "coordinates": [
          -86.2536353,
          12.1453802
        ]
      },
      "id": "node/2490583752"
    },
    {
      "type": "Feature",
      "properties": {
        "@id": "node/2490583755",
        "bus": "yes",
        "highway": "bus_stop",
        "name": "INATEC",
        "public_transport": "platform"
      },
      "geometry": {
        "type": "Point",
        "coordinates": [
          -86.2989968,
          12.1262764
        ]
      },
      "id": "node/2490583755"
    },
    {
      "type": "Feature",
      "properties": {
        "@id": "node/2490583762",
        "bus": "yes",
        "highway": "bus_stop",
        "name": "Alcaldía de Managua",
        "public_transport": "platform"
      },
      "geometry": {
        "type": "Point",
        "coordinates": [
          -86.2971943,
          12.1280239
        ]
      },
      "id": "node/2490583762"
    },
    {
      "type": "Feature",
      "properties": {
        "@id": "node/2490583765",
        "bus": "yes",
        "highway": "bus_stop",
        "name": "La Tiendona",
        "public_transport": "platform"
      },
      "geometry": {
        "type": "Point",
        "coordinates": [
          -86.2494754,
          12.1420893
        ]
      },
      "id": "node/2490583765"
    },
    {
      "type": "Feature",
      "properties": {
        "@id": "node/2491532421",
        "bus": "yes",
        "highway": "bus_stop",
        "name": "ALKE",
        "public_transport": "platform"
      },
      "geometry": {
        "type": "Point",
        "coordinates": [
          -86.2910826,
          12.15543
        ]
      },
      "id": "node/2491532421"
    },
    {
      "type": "Feature",
      "properties": {
        "@id": "node/2491532422",
        "bus": "yes",
        "highway": "bus_stop",
        "name": "ALKE",
        "public_transport": "platform"
      },
      "geometry": {
        "type": "Point",
        "coordinates": [
          -86.2917162,
          12.1554633
        ]
      },
      "id": "node/2491532422"
    },
    {
      "type": "Feature",
      "properties": {
        "@id": "node/2496955979",
        "bus": "yes",
        "highway": "bus_stop",
        "name": "Sala de Belleza Alma",
        "public_transport": "platform"
      },
      "geometry": {
        "type": "Point",
        "coordinates": [
          -86.2510199,
          12.1441766
        ]
      },
      "id": "node/2496955979"
    },
    {
      "type": "Feature",
      "properties": {
        "@id": "node/2496955980",
        "bus": "yes",
        "highway": "bus_stop",
        "name": "Campo de béisbol Las Jagüitas",
        "public_transport": "platform"
      },
      "geometry": {
        "type": "Point",
        "coordinates": [
          -86.207579,
          12.0967278
        ]
      },
      "id": "node/2496955980"
    },
    {
      "type": "Feature",
      "properties": {
        "@id": "node/2496955981",
        "bus": "yes",
        "highway": "bus_stop",
        "name": "Templo Mormón Altagracia",
        "public_transport": "platform"
      },
      "geometry": {
        "type": "Point",
        "coordinates": [
          -86.2894713,
          12.1362455
        ]
      },
      "id": "node/2496955981"
    },
    {
      "type": "Feature",
      "properties": {
        "@id": "node/2496955982",
        "bus": "yes",
        "highway": "bus_stop",
        "name": "Avenida Pochote",
        "public_transport": "platform"
      },
      "geometry": {
        "type": "Point",
        "coordinates": [
          -86.2359256,
          12.1165728
        ]
      },
      "id": "node/2496955982"
    },
    {
      "type": "Feature",
      "properties": {
        "@id": "node/2496955983",
        "bus": "yes",
        "highway": "bus_stop",
        "name": "Plaza El Edén",
        "public_transport": "platform"
      },
      "geometry": {
        "type": "Point",
        "coordinates": [
          -86.2418915,
          12.1409707
        ]
      },
      "id": "node/2496955983"
    },
    {
      "type": "Feature",
      "properties": {
        "@id": "node/2496955984",
        "bus": "yes",
        "highway": "bus_stop",
        "name": "Comedor Getsemani",
        "public_transport": "platform"
      },
      "geometry": {
        "type": "Point",
        "coordinates": [
          -86.2783126,
          12.1486651
        ]
      },
      "id": "node/2496955984"
    },
    {
      "type": "Feature",
      "properties": {
        "@id": "node/2496955986",
        "bus": "yes",
        "highway": "bus_stop",
        "name": "INSS",
        "public_transport": "platform"
      },
      "geometry": {
        "type": "Point",
        "coordinates": [
          -86.2760521,
          12.1484902
        ]
      },
      "id": "node/2496955986"
    },
    {
      "type": "Feature",
      "properties": {
        "@id": "node/2496955988",
        "bus": "yes",
        "highway": "bus_stop",
        "name": "Iglesia Solo Cristo Salva",
        "public_transport": "platform"
      },
      "geometry": {
        "type": "Point",
        "coordinates": [
          -86.1919972,
          12.0833596
        ]
      },
      "id": "node/2496955988"
    },
    {
      "type": "Feature",
      "properties": {
        "@id": "node/2496955989",
        "bus": "yes",
        "highway": "bus_stop",
        "name": "Vuelta II",
        "public_transport": "platform"
      },
      "geometry": {
        "type": "Point",
        "coordinates": [
          -86.2328068,
          12.1153396
        ]
      },
      "id": "node/2496955989"
    },
    {
      "type": "Feature",
      "properties": {
        "@id": "node/2496955990",
        "bus": "yes",
        "highway": "bus_stop",
        "name": "Variedades Joshep",
        "public_transport": "platform"
      },
      "geometry": {
        "type": "Point",
        "coordinates": [
          -86.2892158,
          12.1398022
        ]
      },
      "id": "node/2496955990"
    },
    {
      "type": "Feature",
      "properties": {
        "@id": "node/2496955992",
        "bus": "yes",
        "highway": "bus_stop",
        "name": "Salomón Moreno",
        "public_transport": "platform"
      },
      "geometry": {
        "type": "Point",
        "coordinates": [
          -86.2237227,
          12.1054254
        ]
      },
      "id": "node/2496955992"
    },
    {
      "type": "Feature",
      "properties": {
        "@id": "node/2496955993",
        "bus": "yes",
        "highway": "bus_stop",
        "name": "Cementerio Las Jagüitas",
        "public_transport": "platform"
      },
      "geometry": {
        "type": "Point",
        "coordinates": [
          -86.2134055,
          12.0987758
        ]
      },
      "id": "node/2496955993"
    },
    {
      "type": "Feature",
      "properties": {
        "@id": "node/2496955997",
        "bus": "yes",
        "highway": "bus_stop",
        "name": "Rótulo Clínica Nuevos Horizontes",
        "public_transport": "platform"
      },
      "geometry": {
        "type": "Point",
        "coordinates": [
          -86.1943496,
          12.0770452
        ]
      },
      "id": "node/2496955997"
    },
    {
      "type": "Feature",
      "properties": {
        "@id": "node/2496956001",
        "bus": "yes",
        "highway": "bus_stop",
        "name": "Residencial Bruselas",
        "public_transport": "platform"
      },
      "geometry": {
        "type": "Point",
        "coordinates": [
          -86.2024674,
          12.0933277
        ]
      },
      "id": "node/2496956001"
    },
    {
      "type": "Feature",
      "properties": {
        "@id": "node/2496956002",
        "bus": "yes",
        "highway": "bus_stop",
        "name": "Iglesia Católica",
        "public_transport": "platform"
      },
      "geometry": {
        "type": "Point",
        "coordinates": [
          -86.1954995,
          12.0891666
        ]
      },
      "id": "node/2496956002"
    },
    {
      "type": "Feature",
      "properties": {
        "@id": "node/2496956003",
        "bus": "yes",
        "highway": "bus_stop",
        "name": "Parque Los Chilamates",
        "public_transport": "platform"
      },
      "geometry": {
        "type": "Point",
        "coordinates": [
          -86.2187256,
          12.1024961
        ]
      },
      "id": "node/2496956003"
    },
    {
      "type": "Feature",
      "properties": {
        "@id": "node/2496956004",
        "bus": "yes",
        "highway": "bus_stop",
        "name": "Hospital Japonés",
        "public_transport": "platform"
      },
      "geometry": {
        "type": "Point",
        "coordinates": [
          -86.2383082,
          12.1340124
        ]
      },
      "id": "node/2496956004"
    },
    {
      "type": "Feature",
      "properties": {
        "@id": "node/2496956006",
        "bus": "yes",
        "highway": "bus_stop",
        "name": "Tanque Rojo",
        "public_transport": "platform"
      },
      "geometry": {
        "type": "Point",
        "coordinates": [
          -86.2237215,
          12.1092121
        ]
      },
      "id": "node/2496956006"
    },
    {
      "type": "Feature",
      "properties": {
        "@id": "node/2496956009",
        "bus": "yes",
        "highway": "bus_stop",
        "name": "Palí La Fuente",
        "public_transport": "platform"
      },
      "geometry": {
        "type": "Point",
        "coordinates": [
          -86.2382227,
          12.1178448
        ]
      },
      "id": "node/2496956009"
    },
    {
      "type": "Feature",
      "properties": {
        "@id": "node/2496956010",
        "bus": "yes",
        "highway": "bus_stop",
        "name": "Panadería Norma",
        "public_transport": "platform"
      },
      "geometry": {
        "type": "Point",
        "coordinates": [
          -86.2824326,
          12.1443083
        ]
      },
      "id": "node/2496956010"
    },
    {
      "type": "Feature",
      "properties": {
        "@id": "node/2496956013",
        "bus": "yes",
        "highway": "bus_stop",
        "name": "Pulpería Jonathan",
        "public_transport": "platform"
      },
      "geometry": {
        "type": "Point",
        "coordinates": [
          -86.231651,
          12.1119483
        ]
      },
      "id": "node/2496956013"
    },
    {
      "type": "Feature",
      "properties": {
        "@id": "node/2496956017",
        "bus": "yes",
        "highway": "bus_stop",
        "name": "Bar Neptuno",
        "public_transport": "platform"
      },
      "geometry": {
        "type": "Point",
        "coordinates": [
          -86.2457121,
          12.1417088
        ]
      },
      "id": "node/2496956017"
    },
    {
      "type": "Feature",
      "properties": {
        "@id": "node/2496956018",
        "bench": "no",
        "bin": "no",
        "bus": "yes",
        "highway": "bus_stop",
        "name": "Tecnológico Central",
        "public_transport": "platform",
        "shelter": "no"
      },
      "geometry": {
        "type": "Point",
        "coordinates": [
          -86.2434657,
          12.1215718
        ]
      },
      "id": "node/2496956018"
    },
    {
      "type": "Feature",
      "properties": {
        "@id": "node/2496956019",
        "bus": "yes",
        "highway": "bus_stop",
        "name": "Semáforo CST",
        "public_transport": "platform"
      },
      "geometry": {
        "type": "Point",
        "coordinates": [
          -86.2821575,
          12.1474785
        ]
      },
      "id": "node/2496956019"
    },
    {
      "type": "Feature",
      "properties": {
        "@id": "node/2496956021",
        "bus": "yes",
        "highway": "bus_stop",
        "name": "Infinitus",
        "public_transport": "platform"
      },
      "geometry": {
        "type": "Point",
        "coordinates": [
          -86.2500279,
          12.1420061
        ]
      },
      "id": "node/2496956021"
    },
    {
      "type": "Feature",
      "properties": {
        "@id": "node/2499328145",
        "highway": "bus_stop",
        "name": "Campo Bello",
        "note": "official",
        "public_transport": "platform",
        "source": "survey"
      },
      "geometry": {
        "type": "Point",
        "coordinates": [
          -86.2121936,
          12.065597
        ]
      },
      "id": "node/2499328145"
    },
    {
      "type": "Feature",
      "properties": {
        "@id": "node/2500129752",
        "bench": "no",
        "bin": "no",
        "bus": "yes",
        "highway": "bus_stop",
        "name": "Mercado Iván Montenegro Sur",
        "public_transport": "platform",
        "shelter": "no"
      },
      "geometry": {
        "type": "Point",
        "coordinates": [
          -86.2158967,
          12.1283718
        ]
      },
      "id": "node/2500129752"
    },
    {
      "type": "Feature",
      "properties": {
        "@id": "node/2500129757",
        "bus": "yes",
        "highway": "bus_stop",
        "public_transport": "platform"
      },
      "geometry": {
        "type": "Point",
        "coordinates": [
          -86.2082489,
          12.126736
        ]
      },
      "id": "node/2500129757"
    },
    {
      "type": "Feature",
      "properties": {
        "@id": "node/2500129758",
        "bus": "yes",
        "highway": "bus_stop",
        "name": "Colegio Inmaculada Concepción",
        "public_transport": "platform"
      },
      "geometry": {
        "type": "Point",
        "coordinates": [
          -86.2097171,
          12.1274807
        ]
      },
      "id": "node/2500129758"
    },
    {
      "type": "Feature",
      "properties": {
        "@id": "node/2500129766",
        "bench": "yes",
        "bus": "yes",
        "highway": "bus_stop",
        "name": "Cooperativa Parrales Vallejos",
        "public_transport": "platform",
        "shelter": "yes"
      },
      "geometry": {
        "type": "Point",
        "coordinates": [
          -86.2290724,
          12.1360246
        ]
      },
      "id": "node/2500129766"
    },
    {
      "type": "Feature",
      "properties": {
        "@id": "node/2500129770",
        "bus": "yes",
        "highway": "bus_stop",
        "name": "El Colonial",
        "public_transport": "platform"
      },
      "geometry": {
        "type": "Point",
        "coordinates": [
          -86.2383981,
          12.1464041
        ]
      },
      "id": "node/2500129770"
    },
    {
      "type": "Feature",
      "properties": {
        "@id": "node/2500129772",
        "bus": "yes",
        "highway": "bus_stop",
        "name": "Farmacia Luis",
        "public_transport": "platform"
      },
      "geometry": {
        "type": "Point",
        "coordinates": [
          -86.2429639,
          12.1461098
        ]
      },
      "id": "node/2500129772"
    },
    {
      "type": "Feature",
      "properties": {
        "@id": "node/2500129775",
        "bench": "yes",
        "bus": "yes",
        "highway": "bus_stop",
        "name": "Clínica Las Américas",
        "public_transport": "platform",
        "shelter": "yes"
      },
      "geometry": {
        "type": "Point",
        "coordinates": [
          -86.2118962,
          12.1278606
        ]
      },
      "id": "node/2500129775"
    },
    {
      "type": "Feature",
      "properties": {
        "@id": "node/2500129787",
        "bus": "yes",
        "highway": "bus_stop",
        "name": "Verde Sonrisa",
        "public_transport": "platform"
      },
      "geometry": {
        "type": "Point",
        "coordinates": [
          -86.2290419,
          12.1427835
        ]
      },
      "id": "node/2500129787"
    },
    {
      "type": "Feature",
      "properties": {
        "@id": "node/2500129790",
        "bus": "yes",
        "highway": "bus_stop",
        "public_transport": "platform"
      },
      "geometry": {
        "type": "Point",
        "coordinates": [
          -86.2081626,
          12.1267427
        ]
      },
      "id": "node/2500129790"
    },
    {
      "type": "Feature",
      "properties": {
        "@id": "node/2500129791",
        "bench": "yes",
        "bin": "yes",
        "bus": "yes",
        "highway": "bus_stop",
        "name": "UCyT",
        "public_transport": "platform",
        "shelter": "yes"
      },
      "geometry": {
        "type": "Point",
        "coordinates": [
          -86.2289792,
          12.1354297
        ]
      },
      "id": "node/2500129791"
    },
    {
      "type": "Feature",
      "properties": {
        "@id": "node/2500129839",
        "bus": "yes",
        "highway": "bus_stop",
        "name": "Hospital Alemán Nicaragüense",
        "public_transport": "platform"
      },
      "geometry": {
        "type": "Point",
        "coordinates": [
          -86.2179112,
          12.1471143
        ]
      },
      "id": "node/2500129839"
    },
    {
      "type": "Feature",
      "properties": {
        "@id": "node/2500129843",
        "bench": "yes",
        "bus": "yes",
        "highway": "bus_stop",
        "name": "Rotonda Bello Horizonte Oeste",
        "public_transport": "platform",
        "shelter": "yes"
      },
      "geometry": {
        "type": "Point",
        "coordinates": [
          -86.2347273,
          12.1459034
        ]
      },
      "id": "node/2500129843"
    },
    {
      "type": "Feature",
      "properties": {
        "@id": "node/2500129934",
        "bench": "yes",
        "bus": "yes",
        "highway": "bus_stop",
        "name": "Colegio Inmaculada Concepción",
        "public_transport": "platform",
        "shelter": "yes"
      },
      "geometry": {
        "type": "Point",
        "coordinates": [
          -86.2093242,
          12.1272342
        ]
      },
      "id": "node/2500129934"
    },
    {
      "type": "Feature",
      "properties": {
        "@id": "node/2500129942",
        "bench": "no",
        "bin": "no",
        "bus": "yes",
        "highway": "bus_stop",
        "name": "Paso a desnivel Rubenia",
        "public_transport": "platform",
        "shelter": "no"
      },
      "geometry": {
        "type": "Point",
        "coordinates": [
          -86.2301702,
          12.1325175
        ]
      },
      "id": "node/2500129942"
    },
    {
      "type": "Feature",
      "properties": {
        "@id": "node/2500129945",
        "bench": "yes",
        "bus": "yes",
        "highway": "bus_stop",
        "name": "Parroquia Pío X",
        "public_transport": "platform",
        "shelter": "yes"
      },
      "geometry": {
        "type": "Point",
        "coordinates": [
          -86.2298017,
          12.1453473
        ]
      },
      "id": "node/2500129945"
    },
    {
      "type": "Feature",
      "properties": {
        "@id": "node/2500129950",
        "bench": "no",
        "bin": "no",
        "bus": "yes",
        "highway": "bus_stop",
        "name": "El Colonial",
        "public_transport": "platform",
        "shelter": "no"
      },
      "geometry": {
        "type": "Point",
        "coordinates": [
          -86.2378891,
          12.1464726
        ]
      },
      "id": "node/2500129950"
    },
    {
      "type": "Feature",
      "properties": {
        "@id": "node/2500129953",
        "bench": "yes",
        "bus": "yes",
        "highway": "bus_stop",
        "name": "Taller Joe",
        "public_transport": "platform",
        "shelter": "yes"
      },
      "geometry": {
        "type": "Point",
        "coordinates": [
          -86.2458352,
          12.1462466
        ]
      },
      "id": "node/2500129953"
    },
    {
      "type": "Feature",
      "properties": {
        "@id": "node/2500129954",
        "bus": "yes",
        "highway": "bus_stop",
        "name": "Mataburros Pancasán",
        "public_transport": "platform"
      },
      "geometry": {
        "type": "Point",
        "coordinates": [
          -86.2467561,
          12.1464885
        ]
      },
      "id": "node/2500129954"
    },
    {
      "type": "Feature",
      "properties": {
        "@id": "node/2500129957",
        "bench": "no",
        "bus": "yes",
        "highway": "bus_stop",
        "name": "Rotonda Bello Horizonte Oeste",
        "public_transport": "platform",
        "shelter": "no"
      },
      "geometry": {
        "type": "Point",
        "coordinates": [
          -86.2346202,
          12.146071
        ]
      },
      "id": "node/2500129957"
    },
    {
      "type": "Feature",
      "properties": {
        "@id": "node/2500129969",
        "bus": "yes",
        "highway": "bus_stop",
        "name": "Sellos de Hule",
        "public_transport": "platform"
      },
      "geometry": {
        "type": "Point",
        "coordinates": [
          -86.2426253,
          12.1462692
        ]
      },
      "id": "node/2500129969"
    },
    {
      "type": "Feature",
      "properties": {
        "@id": "node/2500130005",
        "bench": "no",
        "bus": "yes",
        "highway": "bus_stop",
        "name": "Paso a desnivel Rubenia",
        "public_transport": "platform",
        "shelter": "no"
      },
      "geometry": {
        "type": "Point",
        "coordinates": [
          -86.2307679,
          12.1320537
        ]
      },
      "id": "node/2500130005"
    },
    {
      "type": "Feature",
      "properties": {
        "@id": "node/2500572125",
        "highway": "bus_stop",
        "name": "KM 10 1/2 Carretera Masaya",
        "public_transport": "platform",
        "shelter": "yes",
        "source": "survey"
      },
      "geometry": {
        "type": "Point",
        "coordinates": [
          -86.228074,
          12.0830643
        ]
      },
      "id": "node/2500572125"
    },
    {
      "type": "Feature",
      "properties": {
        "@id": "node/2501151830",
        "bus": "yes",
        "highway": "bus_stop",
        "name": "14 de Septiembre",
        "public_transport": "platform"
      },
      "geometry": {
        "type": "Point",
        "coordinates": [
          -86.2315928,
          12.1228965
        ]
      },
      "id": "node/2501151830"
    },
    {
      "type": "Feature",
      "properties": {
        "@id": "node/2501245092",
        "bus": "yes",
        "highway": "bus_stop",
        "name": "Farmacia San Lorenzo",
        "public_transport": "platform"
      },
      "geometry": {
        "type": "Point",
        "coordinates": [
          -86.273975,
          12.1212587
        ]
      },
      "id": "node/2501245092"
    },
    {
      "type": "Feature",
      "properties": {
        "@id": "node/2501245098",
        "bench": "yes",
        "bus": "yes",
        "highway": "bus_stop",
        "name": "UNICIT",
        "public_transport": "platform",
        "shelter": "yes"
      },
      "geometry": {
        "type": "Point",
        "coordinates": [
          -86.2719699,
          12.1119572
        ]
      },
      "id": "node/2501245098"
    },
    {
      "type": "Feature",
      "properties": {
        "@id": "node/2501245110",
        "bus": "yes",
        "highway": "bus_stop",
        "name": "La Subasta",
        "public_transport": "platform"
      },
      "geometry": {
        "type": "Point",
        "coordinates": [
          -86.1931916,
          12.1479016
        ]
      },
      "id": "node/2501245110"
    },
    {
      "type": "Feature",
      "properties": {
        "@id": "node/2507852283",
        "bus": "yes",
        "highway": "bus_stop",
        "name": "Plaza España Este",
        "public_transport": "platform"
      },
      "geometry": {
        "type": "Point",
        "coordinates": [
          -86.281396,
          12.1335106
        ]
      },
      "id": "node/2507852283"
    },
    {
      "type": "Feature",
      "properties": {
        "@id": "node/2508956805",
        "bus": "yes",
        "highway": "bus_stop",
        "name": "Entrada Miguel Bonilla",
        "public_transport": "platform"
      },
      "geometry": {
        "type": "Point",
        "coordinates": [
          -86.2729239,
          12.1050719
        ]
      },
      "id": "node/2508956805"
    },
    {
      "type": "Feature",
      "properties": {
        "@id": "node/2509891206",
        "bus": "yes",
        "highway": "bus_stop",
        "name": "Policía Distrito I Norte",
        "public_transport": "platform"
      },
      "geometry": {
        "type": "Point",
        "coordinates": [
          -86.2622499,
          12.1455772
        ]
      },
      "id": "node/2509891206"
    },
    {
      "type": "Feature",
      "properties": {
        "@id": "node/2509891207",
        "bus": "yes",
        "highway": "bus_stop",
        "name": "Antigua Estación",
        "public_transport": "platform"
      },
      "geometry": {
        "type": "Point",
        "coordinates": [
          -86.1656836,
          12.1173348
        ]
      },
      "id": "node/2509891207"
    },
    {
      "type": "Feature",
      "properties": {
        "@id": "node/2513648927",
        "bench": "yes",
        "bus": "yes",
        "highway": "bus_stop",
        "name": "Colegio Simón Bolívar",
        "public_transport": "platform",
        "shelter": "yes"
      },
      "geometry": {
        "type": "Point",
        "coordinates": [
          -86.2659798,
          12.1370099
        ]
      },
      "id": "node/2513648927"
    },
    {
      "type": "Feature",
      "properties": {
        "@id": "node/2513648928",
        "bus": "yes",
        "highway": "bus_stop",
        "name": "Costado El Sol",
        "public_transport": "platform"
      },
      "geometry": {
        "type": "Point",
        "coordinates": [
          -86.2650886,
          12.1335199
        ]
      },
      "id": "node/2513648928"
    },
    {
      "type": "Feature",
      "properties": {
        "@id": "node/2513648930",
        "bus": "yes",
        "highway": "bus_stop",
        "name": "Entrada a la base",
        "public_transport": "platform"
      },
      "geometry": {
        "type": "Point",
        "coordinates": [
          -86.2137815,
          12.0701084
        ]
      },
      "id": "node/2513648930"
    },
    {
      "type": "Feature",
      "properties": {
        "@id": "node/2513648931",
        "bus": "yes",
        "highway": "bus_stop",
        "name": "Cruz Azul",
        "public_transport": "platform"
      },
      "geometry": {
        "type": "Point",
        "coordinates": [
          -86.2655414,
          12.1402249
        ]
      },
      "id": "node/2513648931"
    },
    {
      "type": "Feature",
      "properties": {
        "@id": "node/2513648933",
        "bus": "yes",
        "highway": "bus_stop",
        "name": "Los Robles",
        "public_transport": "platform"
      },
      "geometry": {
        "type": "Point",
        "coordinates": [
          -86.2097583,
          12.0696528
        ]
      },
      "id": "node/2513648933"
    },
    {
      "type": "Feature",
      "properties": {
        "@id": "node/2513648934",
        "bus": "yes",
        "highway": "bus_stop",
        "name": "Alborada",
        "public_transport": "platform"
      },
      "geometry": {
        "type": "Point",
        "coordinates": [
          -86.2071697,
          12.0696845
        ]
      },
      "id": "node/2513648934"
    },
    {
      "type": "Feature",
      "properties": {
        "@id": "node/2513648935",
        "bus": "yes",
        "highway": "bus_stop",
        "name": "Cenicera",
        "public_transport": "platform"
      },
      "geometry": {
        "type": "Point",
        "coordinates": [
          -86.2049052,
          12.0696595
        ]
      },
      "id": "node/2513648935"
    },
    {
      "type": "Feature",
      "properties": {
        "@id": "node/2513648936",
        "bus": "yes",
        "highway": "bus_stop",
        "name": "El Avispero",
        "public_transport": "platform"
      },
      "geometry": {
        "type": "Point",
        "coordinates": [
          -86.2117212,
          12.0700286
        ]
      },
      "id": "node/2513648936"
    },
    {
      "type": "Feature",
      "properties": {
        "@id": "node/2513648937",
        "bus": "yes",
        "highway": "bus_stop",
        "name": "El Chato",
        "public_transport": "platform"
      },
      "geometry": {
        "type": "Point",
        "coordinates": [
          -86.2058422,
          12.0696982
        ]
      },
      "id": "node/2513648937"
    },
    {
      "type": "Feature",
      "properties": {
        "@id": "node/2519097839",
        "bus": "yes",
        "highway": "bus_stop",
        "name": "Parque Héroes y Mártires",
        "public_transport": "platform",
        "shelter": "no"
      },
      "geometry": {
        "type": "Point",
        "coordinates": [
          -86.2995385,
          12.1343524
        ]
      },
      "id": "node/2519097839"
    },
    {
      "type": "Feature",
      "properties": {
        "@id": "node/2519106868",
        "bench": "yes",
        "bin": "no",
        "bus": "yes",
        "highway": "bus_stop",
        "lit": "no",
        "name": "Plaza El Sol",
        "public_transport": "platform",
        "shelter": "yes"
      },
      "geometry": {
        "type": "Point",
        "coordinates": [
          -86.2615299,
          12.1310282
        ]
      },
      "id": "node/2519106868"
    },
    {
      "type": "Feature",
      "properties": {
        "@id": "node/2523905272",
        "bus": "yes",
        "highway": "bus_stop",
        "name": "Entrada a la base",
        "public_transport": "platform"
      },
      "geometry": {
        "type": "Point",
        "coordinates": [
          -86.2136687,
          12.0700454
        ]
      },
      "id": "node/2523905272"
    },
    {
      "type": "Feature",
      "properties": {
        "@id": "node/2523905273",
        "bench": "yes",
        "bin": "no",
        "bus": "yes",
        "covered": "yes",
        "highway": "bus_stop",
        "name": "Galerías Santo Domingo Este",
        "network": "NI",
        "public_transport": "platform",
        "shelter": "yes"
      },
      "geometry": {
        "type": "Point",
        "coordinates": [
          -86.2475495,
          12.1049926
        ]
      },
      "id": "node/2523905273"
    },
    {
      "type": "Feature",
      "properties": {
        "@id": "node/2523905274",
        "bus": "yes",
        "highway": "bus_stop",
        "name": "Movistar",
        "public_transport": "platform"
      },
      "geometry": {
        "type": "Point",
        "coordinates": [
          -86.2504843,
          12.1077624
        ]
      },
      "id": "node/2523905274"
    },
    {
      "type": "Feature",
      "properties": {
        "@id": "node/2523905276",
        "bus": "yes",
        "highway": "bus_stop",
        "name": "KM 10 1/2 Carretera Masaya",
        "public_transport": "platform",
        "shelter": "yes"
      },
      "geometry": {
        "type": "Point",
        "coordinates": [
          -86.226514,
          12.0818938
        ]
      },
      "id": "node/2523905276"
    },
    {
      "type": "Feature",
      "properties": {
        "@id": "node/2523905277",
        "bus": "yes",
        "highway": "bus_stop",
        "name": "Instituto de Desarrollo Rural",
        "public_transport": "platform"
      },
      "geometry": {
        "type": "Point",
        "coordinates": [
          -86.2386768,
          12.0952089
        ]
      },
      "id": "node/2523905277"
    },
    {
      "type": "Feature",
      "properties": {
        "@id": "node/2523905278",
        "bus": "yes",
        "highway": "bus_stop",
        "name": "Los Robles",
        "public_transport": "platform"
      },
      "geometry": {
        "type": "Point",
        "coordinates": [
          -86.2096896,
          12.0695846
        ]
      },
      "id": "node/2523905278"
    },
    {
      "type": "Feature",
      "properties": {
        "@id": "node/2523905281",
        "bus": "yes",
        "highway": "bus_stop",
        "name": "Instituto de Desarrollo Rural",
        "public_transport": "platform"
      },
      "geometry": {
        "type": "Point",
        "coordinates": [
          -86.2394292,
          12.0956306
        ]
      },
      "id": "node/2523905281"
    },
    {
      "type": "Feature",
      "properties": {
        "@id": "node/2523905282",
        "bus": "yes",
        "highway": "bus_stop",
        "name": "Alborada",
        "public_transport": "platform"
      },
      "geometry": {
        "type": "Point",
        "coordinates": [
          -86.2071153,
          12.0695988
        ]
      },
      "id": "node/2523905282"
    },
    {
      "type": "Feature",
      "properties": {
        "@id": "node/2523905283",
        "bus": "yes",
        "highway": "bus_stop",
        "name": "Cenicera",
        "public_transport": "platform"
      },
      "geometry": {
        "type": "Point",
        "coordinates": [
          -86.2048754,
          12.0695369
        ]
      },
      "id": "node/2523905283"
    },
    {
      "type": "Feature",
      "properties": {
        "@id": "node/2523905284",
        "bus": "yes",
        "highway": "bus_stop",
        "name": "El Avispero",
        "public_transport": "platform"
      },
      "geometry": {
        "type": "Point",
        "coordinates": [
          -86.2116177,
          12.0699175
        ]
      },
      "id": "node/2523905284"
    },
    {
      "type": "Feature",
      "properties": {
        "@id": "node/2523905285",
        "bus": "yes",
        "highway": "bus_stop",
        "name": "El Chato",
        "public_transport": "platform"
      },
      "geometry": {
        "type": "Point",
        "coordinates": [
          -86.2058269,
          12.0695993
        ]
      },
      "id": "node/2523905285"
    },
    {
      "type": "Feature",
      "properties": {
        "@id": "node/2523905287",
        "bus": "yes",
        "highway": "bus_stop",
        "name": "Plaza Familiar",
        "public_transport": "platform"
      },
      "geometry": {
        "type": "Point",
        "coordinates": [
          -86.2441847,
          12.1008138
        ]
      },
      "id": "node/2523905287"
    },
    {
      "type": "Feature",
      "properties": {
        "@id": "node/2523905288",
        "bus": "yes",
        "highway": "bus_stop",
        "name": "Plaza Familiar",
        "public_transport": "platform",
        "shelter": "yes"
      },
      "geometry": {
        "type": "Point",
        "coordinates": [
          -86.2449988,
          12.1022459
        ]
      },
      "id": "node/2523905288"
    },
    {
      "type": "Feature",
      "properties": {
        "@id": "node/2523905290",
        "bench": "yes",
        "bus": "yes",
        "highway": "bus_stop",
        "name": "KM 9 Carretera Masaya / Tercera entrada a Santo Domingo",
        "network": "NI",
        "public_transport": "platform",
        "shelter": "yes"
      },
      "geometry": {
        "type": "Point",
        "coordinates": [
          -86.2342842,
          12.0899119
        ]
      },
      "id": "node/2523905290"
    },
    {
      "type": "Feature",
      "properties": {
        "@id": "node/2523905291",
        "bench": "yes",
        "bus": "yes",
        "covered": "yes",
        "highway": "bus_stop",
        "name": "KM 9 Carretera Masaya / Tercera entrada a Santo Domingo",
        "network": "NI",
        "public_transport": "platform",
        "shelter": "yes"
      },
      "geometry": {
        "type": "Point",
        "coordinates": [
          -86.2341178,
          12.0902938
        ]
      },
      "id": "node/2523905291"
    },
    {
      "type": "Feature",
      "properties": {
        "@id": "node/2523905293",
        "bus": "yes",
        "highway": "bus_stop",
        "name": "Puente El Paraisito",
        "public_transport": "platform"
      },
      "geometry": {
        "type": "Point",
        "coordinates": [
          -86.2470535,
          12.1401591
        ]
      },
      "id": "node/2523905293"
    },
    {
      "type": "Feature",
      "properties": {
        "@id": "node/2523905295",
        "bus": "yes",
        "highway": "bus_stop",
        "name": "Bosques de Santa María",
        "public_transport": "platform"
      },
      "geometry": {
        "type": "Point",
        "coordinates": [
          -86.2292748,
          12.0848836
        ]
      },
      "id": "node/2523905295"
    },
    {
      "type": "Feature",
      "properties": {
        "@id": "node/2523942646",
        "bus": "yes",
        "highway": "bus_stop",
        "name": "El Zumen Oeste",
        "public_transport": "platform"
      },
      "geometry": {
        "type": "Point",
        "coordinates": [
          -86.2971674,
          12.1252992
        ]
      },
      "id": "node/2523942646"
    },
    {
      "type": "Feature",
      "properties": {
        "@id": "node/2523942649",
        "bus": "yes",
        "highway": "bus_stop",
        "name": "Parque Independencia",
        "public_transport": "platform"
      },
      "geometry": {
        "type": "Point",
        "coordinates": [
          -86.296961,
          12.1231279
        ]
      },
      "id": "node/2523942649"
    },
    {
      "type": "Feature",
      "properties": {
        "@id": "node/2526103020",
        "bus": "yes",
        "highway": "bus_stop",
        "name": "Talleres Pellas",
        "public_transport": "platform"
      },
      "geometry": {
        "type": "Point",
        "coordinates": [
          -86.2997557,
          12.1578716
        ]
      },
      "id": "node/2526103020"
    },
    {
      "type": "Feature",
      "properties": {
        "@id": "node/2526103021",
        "bus": "yes",
        "highway": "bus_stop",
        "name": "Terminal Barrio Camilo Chamorro",
        "public_transport": "platform"
      },
      "geometry": {
        "type": "Point",
        "coordinates": [
          -86.1988398,
          12.1568687
        ]
      },
      "id": "node/2526103021"
    },
    {
      "type": "Feature",
      "properties": {
        "@id": "node/2526103022",
        "bus": "yes",
        "highway": "bus_stop",
        "name": "Palacio Nacional",
        "public_transport": "platform"
      },
      "geometry": {
        "type": "Point",
        "coordinates": [
          -86.2712543,
          12.1547708
        ]
      },
      "id": "node/2526103022"
    },
    {
      "type": "Feature",
      "properties": {
        "@id": "node/2526103023",
        "bus": "yes",
        "highway": "bus_stop",
        "name": "Instituto Gaspar García Laviana",
        "public_transport": "platform"
      },
      "geometry": {
        "type": "Point",
        "coordinates": [
          -86.2998576,
          12.1549249
        ]
      },
      "id": "node/2526103023"
    },
    {
      "type": "Feature",
      "properties": {
        "@id": "node/2526103024",
        "bus": "yes",
        "highway": "bus_stop",
        "name": "Parque José de San Martín",
        "public_transport": "platform"
      },
      "geometry": {
        "type": "Point",
        "coordinates": [
          -86.2999544,
          12.1517579
        ]
      },
      "id": "node/2526103024"
    },
    {
      "type": "Feature",
      "properties": {
        "@id": "node/2526103025",
        "bus": "yes",
        "highway": "bus_stop",
        "name": "Parque José de San Martín",
        "public_transport": "platform"
      },
      "geometry": {
        "type": "Point",
        "coordinates": [
          -86.3000576,
          12.1518117
        ]
      },
      "id": "node/2526103025"
    },
    {
      "type": "Feature",
      "properties": {
        "@id": "node/2526103030",
        "bus": "yes",
        "highway": "bus_stop",
        "name": "Instituto Gaspar García Laviana",
        "public_transport": "platform"
      },
      "geometry": {
        "type": "Point",
        "coordinates": [
          -86.2997463,
          12.1548977
        ]
      },
      "id": "node/2526103030"
    },
    {
      "type": "Feature",
      "properties": {
        "@id": "node/2526103035",
        "bus": "yes",
        "highway": "bus_stop",
        "name": "Talleres Pellas",
        "public_transport": "platform"
      },
      "geometry": {
        "type": "Point",
        "coordinates": [
          -86.2996053,
          12.1578704
        ]
      },
      "id": "node/2526103035"
    },
    {
      "type": "Feature",
      "properties": {
        "@id": "node/2530293541",
        "bench": "yes",
        "bus": "yes",
        "highway": "bus_stop",
        "name": "Cuadro Gadala María",
        "public_transport": "platform",
        "shelter": "yes"
      },
      "geometry": {
        "type": "Point",
        "coordinates": [
          -86.2956546,
          12.157764
        ]
      },
      "id": "node/2530293541"
    },
    {
      "type": "Feature",
      "properties": {
        "@id": "node/2530293542",
        "bench": "yes",
        "bus": "yes",
        "highway": "bus_stop",
        "name": "Cuadro Gadala María",
        "public_transport": "platform",
        "shelter": "yes"
      },
      "geometry": {
        "type": "Point",
        "coordinates": [
          -86.2948197,
          12.1578692
        ]
      },
      "id": "node/2530293542"
    },
    {
      "type": "Feature",
      "properties": {
        "@id": "node/2530293543",
        "bus": "yes",
        "highway": "bus_stop",
        "name": "Pulpería La Providencia",
        "public_transport": "platform"
      },